Stop name,Departure delay count,Arrival delay count,Train count,Departure delay rate (%),Arrival delay rate (%),Max departure time delay,Max arrival time delay,latitude,longitude
Oberwinterthur,0,0,72,0.0,0.0,0 days 00:02:14,0 days 00:01:44,47.5079223325029,8.760389196167752
Zürich Stadelhofen,19,15,719,2.6,2.1,0 days 00:13:25,0 days 00:12:56,47.36660976671019,8.548489088449456
Othmarsingen,9,7,157,5.7,4.5,0 days 00:08:15,0 days 00:07:46,47.40743350791071,8.214805494441988
Schlieren,6,4,165,3.6,2.4,0 days 00:09:15,0 days 00:05:37,47.39917636823757,8.44724506333892
Mellingen Heitersberg,8,8,78,10.3,10.3,0 days 00:09:03,0 days 00:08:37,47.42807508777434,8.276363251209915
Zürich Altstetten,10,12,352,2.8,3.4,0 days 00:07:58,0 days 00:08:35,47.3914830730815,8.488962649961255
Dietikon,5,4,197,2.5,2.0,0 days 00:09:55,0 days 00:06:25,47.40578380656623,8.404988187894768
Wettingen,7,5,199,3.5,2.5,0 days 00:06:54,0 days 00:06:28,47.45963817592964,8.316006171449603
Glanzenberg,6,4,164,3.7,2.4,0 days 00:07:51,0 days 00:07:25,47.39887872505403,8.42044187660217
Killwangen-Spreitenbach,18,11,164,11.0,6.7,0 days 00:09:52,0 days 00:06:24,47.433328858368775,8.35421400060419
Brugg AG,5,5,382,1.3,1.3,0 days 00:10:24,0 days 00:10:45,47.48085983498152,8.208844553488955
Zürich Hardbrücke,40,17,724,5.5,2.3,0 days 00:09:34,0 days 00:08:55,47.38519789150452,8.517126201465674
Andelfingen,0,0,108,0.0,0.0,0 days 00:02:28,0 days 00:01:32,47.59376618474327,8.67800161121179
Henggart,1,0,76,1.3,0.0,0 days 00:03:06,0 days 00:02:30,47.56425724371697,8.68507523532507
Turgi,10,7,309,3.2,2.3,0 days 00:06:47,0 days 00:06:23,47.49175731953012,8.253458645708486
Winterthur,6,8,619,1.0,1.3,0 days 00:09:57,0 days 00:10:53,47.50033381046675,8.723821055408687
Hettlingen,0,0,76,0.0,0.0,0 days 00:02:17,0 days 00:02:27,47.54544144646594,8.694834153058263
Dachsen,0,0,76,0.0,0.0,0 days 00:02:46,0 days 00:02:43,47.66709049852094,8.613822740634538
Schloss Laufen am Rheinfall,7,1,76,9.2,1.3,0 days 00:04:02,0 days 00:03:11,47.67656565235865,8.614269044093051
Baden,15,9,421,3.6,2.1,0 days 00:11:16,0 days 00:12:44,47.476424284622105,8.307709474036757
Schaffhausen,1,1,271,0.4,0.4,0 days 00:03:01,0 days 00:03:53,47.69828151482092,8.63275578013484
Marthalen,0,0,76,0.0,0.0,0 days 00:02:14,0 days 00:01:27,47.63137974671427,8.65606285065456
Neuenhof,9,5,86,10.5,5.8,0 days 00:07:10,0 days 00:06:38,47.45066423309998,8.33125531800341
Zürich HB,35,36,1870,1.9,1.9,0 days 00:28:22,0 days 00:44:04,47.37817667422329,8.540212349099065
Stettbach,10,5,324,3.1,1.5,0 days 00:05:23,0 days 00:04:54,47.39721540795749,8.596144778535841
Neuhausen,3,0,164,1.8,0.0,0 days 00:03:25,0 days 00:02:52,47.68313341196783,8.62493454562013
St. Gallen,7,5,126,5.6,4.0,0 days 00:05:47,0 days 00:09:31,47.42317894990212,9.369896662720434
Genève-Aéroport,8,9,210,3.8,4.3,0 days 00:17:21,0 days 00:20:51,46.23253853438607,6.111985572600153
Genève,76,57,588,12.9,9.7,0 days 00:22:05,0 days 00:24:26,46.210212898757526,6.142451595144949
Rüti ZH,7,6,159,4.4,3.8,0 days 00:12:52,0 days 00:10:16,47.26048380429486,8.854079463450585
Schwerzenbach ZH,6,2,162,3.7,1.2,0 days 00:04:25,0 days 00:03:31,47.384385823564834,8.65867361489504
Rapperswil SG,5,9,245,2.0,3.7,0 days 00:08:09,0 days 00:16:48,47.22488721231692,8.816744887601102
Wetzikon ZH,8,7,309,2.6,2.3,0 days 00:09:15,0 days 00:09:47,47.31803163150593,8.792289733783823
Zürich Oerlikon,15,15,860,1.7,1.7,0 days 00:13:56,0 days 00:14:12,47.41153004120178,8.544139909988267
Hinwil,0,0,74,0.0,0.0,0 days 00:00:54,0 days 00:01:38,47.30005695036496,8.839719894409953
Uster,8,9,318,2.5,2.8,0 days 00:10:08,0 days 00:10:50,47.35036900902118,8.718709159486622
Nänikon-Greifensee,15,4,162,9.3,2.5,0 days 00:05:53,0 days 00:04:42,47.36936291677704,8.686413623154436
Dübendorf,3,3,162,1.9,1.9,0 days 00:03:47,0 days 00:03:33,47.40008035994538,8.623421744230843
Urdorf Weihermatt,5,5,141,3.5,3.5,0 days 00:07:41,0 days 00:07:25,47.38096998247,8.430342513288512
Aathal,10,5,86,11.6,5.8,0 days 00:08:39,0 days 00:08:17,47.3359591338364,8.765625135347072
Urdorf,8,5,141,5.7,3.5,0 days 00:07:56,0 days 00:07:31,47.39088333689357,8.434730698035926
Affoltern am Albis,4,2,141,2.8,1.4,0 days 00:13:38,0 days 00:08:17,47.2760703624343,8.446594995016907
Bonstetten-Wettswil,6,4,141,4.3,2.8,0 days 00:09:51,0 days 00:09:27,47.32590133192649,8.468196900433206
Birmensdorf ZH,5,4,141,3.5,2.8,0 days 00:09:11,0 days 00:06:27,47.35743137498622,8.437555140807286
Hedingen,5,3,141,3.5,2.1,0 days 00:08:20,0 days 00:07:55,47.29878522811603,8.44596555338124
Wallisellen,5,4,162,3.1,2.5,0 days 00:04:32,0 days 00:04:07,47.41272308615273,8.59192819966959
Dielsdorf,0,0,75,0.0,0.0,0 days 00:02:13,0 days 00:01:34,47.48242050548955,8.459443753213174
Niederhasli,2,0,75,2.7,0.0,0 days 00:03:25,0 days 00:02:32,47.478330883504434,8.488707408445821
Bubikon,9,6,159,5.7,3.8,0 days 00:10:16,0 days 00:09:41,47.27084101315205,8.822714839063496
Schöfflisdorf-Oberweningen,0,0,75,0.0,0.0,0 days 00:02:41,0 days 00:02:11,47.497971360255406,8.411812302312198
Niederweningen,0,0,75,0.0,0.0,0 days 00:01:51,0 days 00:01:18,47.51120059646398,8.369630611771688
Rümlang,4,4,158,2.5,2.5,0 days 00:09:49,0 days 00:09:23,47.45406560880629,8.532767322603767
Oberglatt ZH,2,2,159,1.3,1.3,0 days 00:07:50,0 days 00:07:07,47.47020461157632,8.510618836247723
Niederweningen Dorf,0,0,75,0.0,0.0,0 days 00:02:55,0 days 00:02:11,47.50591365393706,8.381073484393124
Steinmaur,0,0,75,0.0,0.0,0 days 00:02:55,0 days 00:02:21,47.48998675874228,8.446857774486467
Glattbrugg,3,2,158,1.9,1.3,0 days 00:08:48,0 days 00:08:17,47.4308267156281,8.558854148745313
Stein-Säckingen,6,5,118,5.1,4.2,0 days 00:18:08,0 days 00:08:36,47.54160826003829,7.948842873337898
Frick,3,7,113,2.7,6.2,0 days 00:08:54,0 days 00:08:14,47.50734852393637,8.013092462834773
Kempraten,8,2,81,9.9,2.5,0 days 00:03:46,0 days 00:03:22,47.23839772828489,8.814310960175693
Uetikon,0,0,151,0.0,0.0,0 days 00:02:52,0 days 00:02:11,47.259030130406266,8.678787098505433
Meilen,0,0,163,0.0,0.0,0 days 00:02:57,0 days 00:02:44,47.26981115115035,8.644311911013787
Zürich Tiefenbrunnen,3,2,163,1.8,1.2,0 days 00:04:39,0 days 00:04:07,47.3501246826194,8.561389849707629
Küsnacht ZH,1,2,150,0.7,1.3,0 days 00:03:19,0 days 00:03:53,47.3191566274616,8.580637816849846
Rheinfelden,6,8,154,3.9,5.2,0 days 00:17:23,0 days 00:17:59,47.55121403249843,7.792168901161147
Erlenbach ZH,3,1,150,2.0,0.7,0 days 00:03:34,0 days 00:03:09,47.30579195922044,8.59152235724792
Küsnacht Goldbach,5,3,150,3.3,2.0,0 days 00:04:35,0 days 00:04:16,47.3268567059159,8.575964186861642
Zürich Flughafen,6,4,451,1.3,0.9,0 days 00:12:07,0 days 00:12:59,47.45038562990025,8.562401820478012
Winkel am Zürichsee,3,0,150,2.0,0.0,0 days 00:03:24,0 days 00:02:59,47.29720784525093,8.598988309405131
Herrliberg-Feldmeilen,0,0,150,0.0,0.0,0 days 00:02:34,0 days 00:02:28,47.28182660107949,8.612733422252322
Zollikon,5,3,150,3.3,2.0,0 days 00:04:45,0 days 00:04:23,47.33733459652272,8.569740625826567
Basel SBB,22,28,587,3.7,4.8,0 days 00:56:07,0 days 00:56:40,47.54741205505015,7.589562790156526
Zürich Wiedikon,15,6,233,6.4,2.6,0 days 00:08:08,0 days 00:07:32,47.371477228424,8.523485439725741
Kilchberg ZH,17,10,162,10.5,6.2,0 days 00:08:04,0 days 00:07:39,47.32443156961683,8.548016404592923
Rüschlikon,10,7,162,6.2,4.3,0 days 00:07:41,0 days 00:07:09,47.307131874609,8.555162654838007
Baar,16,7,202,7.9,3.5,0 days 00:04:50,0 days 00:03:43,47.19536403756802,8.523271537389258
Thalwil,15,9,280,5.4,3.2,0 days 00:07:34,0 days 00:07:07,47.29598140717822,8.564769449072962
Oberrieden Dorf,15,6,76,19.7,7.9,0 days 00:04:50,0 days 00:04:20,47.276731788978026,8.577652787968217
Zürich Enge,5,6,235,2.1,2.6,0 days 00:06:32,0 days 00:06:55,47.364098818019286,8.53082057474785
Horgen Oberdorf,9,1,77,11.7,1.3,0 days 00:03:56,0 days 00:03:09,47.25874981469799,8.589815820934767
Zürich Wipkingen,0,0,74,0.0,0.0,0 days 00:01:12,0 days 00:01:41,47.39303886875819,8.529382371410582
Kemptthal,1,0,78,1.3,0.0,0 days 00:03:06,0 days 00:02:26,47.45283885428056,8.705586248208899
Bassersdorf,4,3,162,2.5,1.9,0 days 00:04:29,0 days 00:06:34,47.438570561596144,8.62622094430108
Effretikon,8,6,327,2.4,1.8,0 days 00:04:49,0 days 00:04:01,47.42581205990943,8.686679144438356
Weinfelden,2,6,101,2.0,5.9,0 days 00:06:05,0 days 00:05:10,47.566224263227966,9.106368221990053
Müllheim-Wigoltingen,0,0,33,0.0,0.0,0 days 00:02:44,0 days 00:02:05,47.58816457357504,9.015522055172228
Islikon,0,0,33,0.0,0.0,0 days 00:01:57,0 days 00:01:26,47.54783491706922,8.846197030189856
Hüttlingen-Mettendorf,0,0,33,0.0,0.0,0 days 00:02:09,0 days 00:01:39,47.58234363610623,8.974555007577901
Märstetten,0,0,33,0.0,0.0,0 days 00:02:48,0 days 00:02:26,47.58282055675705,9.062193477505671
Wiesendangen,0,0,33,0.0,0.0,0 days 00:02:25,0 days 00:01:38,47.52554303726544,8.776038001272784
Frauenfeld,5,2,101,5.0,2.0,0 days 00:04:18,0 days 00:04:18,47.5581634045698,8.896559673414256
Rickenbach-Attikon,0,0,33,0.0,0.0,0 days 00:02:53,0 days 00:02:12,47.53535737473253,8.789175038519382
Felben-Wellhausen,0,0,33,0.0,0.0,0 days 00:02:29,0 days 00:01:58,47.57710212728692,8.943174823204536
Schwanden GL,0,0,31,0.0,0.0,0 days 00:01:06,0 days 00:02:20,46.99685224025029,9.077465723832544
Luchsingen-Hätzingen,1,0,30,3.3,0.0,0 days 00:03:08,0 days 00:02:19,46.96507069223789,9.039022486840029
Linthal Braunwaldbahn,2,0,30,6.7,0.0,0 days 00:03:58,0 days 00:02:38,46.9283107486435,9.002643262432535
Glarus,0,0,31,0.0,0.0,0 days 00:02:43,0 days 00:02:50,47.03992414359789,9.071566413357488
Ennenda,2,1,31,6.5,3.2,0 days 00:03:49,0 days 00:03:15,47.03295954319156,9.077193805088344
Diesbach-Betschwanden,0,0,30,0.0,0.0,0 days 00:02:45,0 days 00:01:54,46.9461808068525,9.024373381879249
Pfäffikon SZ,9,7,258,3.5,2.7,0 days 00:08:53,0 days 00:08:24,47.20299744312634,8.778129818947518
Linthal,0,0,30,0.0,0.0,0 days 00:01:00,0 days 00:02:10,46.92556359068011,8.99779486958079
Leuggelbach,0,0,30,0.0,0.0,0 days 00:02:31,0 days 00:01:54,46.975742862482754,9.046944337183335
Nidfurn-Haslen,0,0,30,0.0,0.0,0 days 00:02:15,0 days 00:01:35,46.985894525142,9.05927645697013
Netstal,1,1,31,3.2,3.2,0 days 00:03:56,0 days 00:03:03,47.064529021978416,9.059435905736834
Rüti GL,2,1,30,6.7,3.3,0 days 00:03:33,0 days 00:03:04,46.93454597370372,9.013038982472793
Mitlödi,1,0,31,3.2,0.0,0 days 00:03:29,0 days 00:02:48,47.01013161304228,9.081211940085185
Siebnen-Wangen,2,0,106,1.9,0.0,0 days 00:03:33,0 days 00:02:46,47.18267069740888,8.900713603936849
Lachen SZ,5,5,112,4.5,4.5,0 days 00:07:32,0 days 00:06:43,47.19006843185192,8.85271518941875
Näfels-Mollis,0,0,31,0.0,0.0,0 days 00:02:46,0 days 00:01:53,47.098719273674,9.069956935022004
Ziegelbrücke,1,1,110,0.9,0.9,0 days 00:03:01,0 days 00:03:04,47.13615591158956,9.060051669978666
Wädenswil,4,4,188,2.1,2.1,0 days 00:08:33,0 days 00:07:59,47.22930727741808,8.675216270989166
Pratteln,9,9,171,5.3,5.3,0 days 00:17:14,0 days 00:16:51,47.52266863171078,7.690817304270064
Basel Bad Bf,14,10,52,26.9,19.2,0 days 00:30:00,0 days 00:37:00,47.56730790569826,7.606920418473082
Siggenthal-Würenlingen,7,5,75,9.3,6.7,0 days 00:04:48,0 days 00:04:20,47.52068999386756,8.240659996207949
Koblenz,0,2,75,0.0,2.7,0 days 00:01:23,0 days 00:03:30,47.600338298694254,8.22704969737929
Klingnau,6,3,75,8.0,4.0,0 days 00:04:48,0 days 00:03:49,47.581557221678345,8.250294852855244
Döttingen,3,4,75,4.0,5.3,0 days 00:03:34,0 days 00:03:56,47.57526982038363,8.256364673275831
Emmenbrücke Gersag,4,3,161,2.5,1.9,0 days 00:05:29,0 days 00:05:16,47.078314178255006,8.276820079539918
Rothenburg Station,2,1,122,1.6,0.8,0 days 00:04:30,0 days 00:04:13,47.08918367453328,8.24756144538213
Sursee,6,5,237,2.5,2.1,0 days 00:15:00,0 days 00:15:20,47.17079504092791,8.097893864664293
Zug,28,11,411,6.8,2.7,0 days 00:06:13,0 days 00:11:42,47.17370697768503,8.51504934096482
Baar Lindenpark,8,3,115,7.0,2.6,0 days 00:04:52,0 days 00:04:35,47.18313669446829,8.517058460139534
Baar Neufeld,7,5,77,9.1,6.5,0 days 00:05:05,0 days 00:04:53,47.18849295129772,8.517780783430128
Nottwil,6,3,87,6.9,3.4,0 days 00:04:18,0 days 00:03:57,47.13881174769985,8.138601024847397
Buchrain,6,5,79,7.6,6.3,0 days 00:06:15,0 days 00:05:56,47.09364991510596,8.356658501855094
Gisikon-Root,9,6,87,10.3,6.9,0 days 00:06:21,0 days 00:06:00,47.12132766775897,8.394788526650432
Hünenberg Zythus,11,10,79,13.9,12.7,0 days 00:06:12,0 days 00:05:45,47.17360756726207,8.450095247059698
Zug Schutzengel,11,9,79,13.9,11.4,0 days 00:06:20,0 days 00:06:10,47.17372492169778,8.507242209320333
Rotkreuz,17,10,208,8.2,4.8,0 days 00:06:43,0 days 00:06:40,47.14176416722361,8.430495263903849
Sempach-Neuenkirch,4,1,125,3.2,0.8,0 days 00:04:41,0 days 00:04:21,47.11605321160843,8.195979058194567
Oberkirch LU,1,1,84,1.2,1.2,0 days 00:03:53,0 days 00:03:39,47.15523762236825,8.114234459651351
Ebikon,6,4,87,6.9,4.6,0 days 00:05:56,0 days 00:05:16,47.08426271807694,8.342358256170456
Hünenberg Chämleten,10,10,78,12.8,12.8,0 days 00:06:29,0 days 00:06:06,47.169159420183846,8.449908537945834
Zug Chollermüli,12,9,79,15.2,11.4,0 days 00:06:12,0 days 00:05:58,47.18023757775795,8.486645706225614
Root D4,7,5,79,8.9,6.3,0 days 00:06:08,0 days 00:05:57,47.10482538750552,8.373760421042387
Luzern,5,11,428,1.2,2.6,0 days 00:05:44,0 days 00:14:59,47.05017782808568,8.310183206942789
Cham Alpenblick,14,9,79,17.7,11.4,0 days 00:05:44,0 days 00:05:29,47.18228240397258,8.471463275367592
Cham,10,11,87,11.5,12.6,0 days 00:05:38,0 days 00:05:58,47.17824387740836,8.457504763732404
Emmenbrücke,5,3,200,2.5,1.5,0 days 00:05:55,0 days 00:05:42,47.07060149966688,8.282565368005681
Emmenbrücke Kapf,3,1,87,3.4,1.1,0 days 00:03:56,0 days 00:03:12,47.09090997877414,8.2731905924685
Kreuzlingen,1,1,32,3.1,3.1,0 days 00:03:23,0 days 00:05:15,47.65255276653688,9.169080418340831
Zürich Wollishofen,10,12,162,6.2,7.4,0 days 00:08:03,0 days 00:07:34,47.34744024475501,8.53360101345863
Mägenwil,11,6,78,14.1,7.7,0 days 00:09:02,0 days 00:08:35,47.414508168243295,8.235155222397674
Aarau,15,17,431,3.5,3.9,0 days 00:28:51,0 days 00:29:00,47.39135951416977,8.051273718700699
Lenzburg,15,11,410,3.7,2.7,0 days 00:29:51,0 days 00:31:08,47.39119975544039,8.170392889345154
Winterthur Seen,0,0,36,0.0,0.0,0 days 00:00:33,0 days 00:01:10,47.48743541944364,8.766813490777574
Winterthur Wallrüti,0,0,38,0.0,0.0,0 days 00:02:56,0 days 00:01:24,47.516721663533794,8.760882167318066
Winterthur Grüze,0,0,36,0.0,0.0,0 days 00:02:03,0 days 00:01:10,47.49875471416034,8.75105520261809
Reutlingen,0,0,38,0.0,0.0,0 days 00:01:40,0 days 00:01:01,47.52965937846129,8.752148075179225
Sennhof-Kyburg,4,0,34,11.8,0.0,0 days 00:03:48,0 days 00:00:46,47.4651768845259,8.760346260416231
Seuzach,0,0,38,0.0,0.0,0 days 00:01:25,0 days 00:00:24,47.53576697592637,8.738883430510043
Russin,7,7,88,8.0,8.0,0 days 00:12:27,0 days 00:12:14,46.18839513072924,6.0180359566242245
Satigny,6,6,88,6.8,6.8,0 days 00:12:25,0 days 00:13:04,46.214227225533854,6.037665211701823
Vernier,4,5,54,7.4,9.3,0 days 00:08:16,0 days 00:07:57,46.22071869750256,6.093891707487846
Meyrin,8,8,88,9.1,9.1,0 days 00:13:38,0 days 00:14:21,46.22233545183765,6.076900799007904
La Plaine,0,6,88,0.0,6.8,0 days 00:02:20,0 days 00:11:59,46.1786653871138,5.999992779741372
Zimeysa,7,6,88,8.0,6.8,0 days 00:13:02,0 days 00:13:48,46.22123959466557,6.0659853485661
Les Tuileries,3,4,161,1.9,2.5,0 days 00:08:10,0 days 00:08:50,46.24994634594045,6.147337458926189
Mies,15,7,196,7.7,3.6,0 days 00:07:26,0 days 00:07:53,46.29848883327675,6.16765465076935
Lancy-Bachet,11,13,178,6.2,7.3,0 days 00:24:25,0 days 00:25:09,46.17433286791479,6.129362136669465
Coppet,17,30,278,6.1,10.8,0 days 00:16:18,0 days 00:15:44,46.31739357074577,6.187827380950365
Creux-de-Genthod,7,3,161,4.3,1.9,0 days 00:06:36,0 days 00:07:13,46.26376775842136,6.16131231071575
Chambésy,22,19,194,11.3,9.8,0 days 00:21:09,0 days 00:22:44,46.24094485508302,6.147304320702687
Chêne-Bourg,11,13,178,6.2,7.3,0 days 00:25:52,0 days 00:25:24,46.19660016900358,6.19733346411845
Tannay,15,15,196,7.7,7.7,0 days 00:07:24,0 days 00:07:46,46.30764514488336,6.181120364557774
Pont-Céard,9,8,180,5.0,4.4,0 days 00:07:30,0 days 00:07:00,46.286817385941546,6.162779285034652
Lancy-Pont-Rouge,20,17,194,10.3,8.8,0 days 00:24:22,0 days 00:24:15,46.18594529978,6.12494699562807
Genthod-Bellevue,4,4,162,2.5,2.5,0 days 00:07:56,0 days 00:08:25,46.25673767556873,6.153960792570101
Versoix,12,8,201,6.0,4.0,0 days 00:07:40,0 days 00:06:50,46.27972718493067,6.165741292020816
Genève-Eaux-Vives,13,14,194,6.7,7.2,0 days 00:24:51,0 days 00:25:20,46.20144540651997,6.16656958815968
Genève-Sécheron,41,38,194,21.1,19.6,0 days 00:22:18,0 days 00:22:02,46.22244030850258,6.1445611504026765
Genève-Champel,15,14,194,7.7,7.2,0 days 00:25:16,0 days 00:25:40,46.1921933443026,6.153498724140746
Landquart,6,6,111,5.4,5.4,0 days 00:07:25,0 days 00:21:43,46.96744042835521,9.554044692079533
Sargans,11,7,130,8.5,5.4,0 days 00:22:20,0 days 00:21:59,47.04482351441455,9.446260474660969
Arth-Goldau,5,9,168,3.0,5.4,0 days 00:05:03,0 days 00:08:43,47.04904488341463,8.549446300669958
Bellinzona,22,3,247,8.9,1.2,0 days 00:08:48,0 days 00:08:13,46.19543179220575,9.02951851227292
Spiez,25,12,110,22.7,10.9,0 days 00:11:43,0 days 00:11:35,46.68639566834843,7.680103057796672
Chur,2,0,111,1.8,0.0,0 days 00:03:44,0 days 00:02:42,46.85308416276408,9.528937733041325
Interlaken West,4,4,54,7.4,7.4,0 days 00:13:02,0 days 00:13:00,46.68262798035661,7.851453137595281
Thun,20,17,110,18.2,15.5,0 days 00:12:23,0 days 00:13:18,46.7548527305928,7.629605828669477
Bern,21,24,243,8.6,9.9,0 days 00:18:35,0 days 00:21:49,46.94883229049847,7.439130889923934
Olten,38,27,702,5.4,3.8,0 days 00:20:56,0 days 00:21:35,47.35193475927179,7.9076996479129
Interlaken Ost,1,2,54,1.9,3.7,0 days 00:09:00,0 days 00:11:35,46.69049999618799,7.869000004346448
Visp,10,7,124,8.1,5.6,0 days 00:08:08,0 days 00:08:31,46.29402913539463,7.881465475745339
Brig,9,12,140,6.4,8.6,0 days 00:24:39,0 days 00:08:49,46.31942270578004,7.988094739403514
Frutigen,1,0,3,33.3,0.0,0 days 00:03:06,0 days 00:03:00,46.588907542807625,7.651418314540159
Kandersteg,0,0,1,0.0,0.0,0 days 00:00:33,0 days 00:00:42,46.4953966505376,7.671412558800185
Goppenstein,0,0,1,0.0,0.0,0 days 00:00:25,,46.36770714811033,7.7549212683604924
Liestal,17,15,198,8.6,7.6,0 days 00:27:31,0 days 00:28:05,47.484461172135006,7.731367480702818
Birr,4,4,79,5.1,5.1,0 days 00:05:30,0 days 00:04:36,47.43584669605579,8.217664818356512
Rupperswil,13,8,122,10.7,6.6,0 days 00:05:52,0 days 00:05:05,47.403290250748185,8.126956365312209
Dietlikon,10,7,175,5.7,4.0,0 days 00:06:05,0 days 00:05:30,47.4202020640061,8.619276404555864
Lupfig,4,3,79,5.1,3.8,0 days 00:05:37,0 days 00:04:51,47.44518418800197,8.214989857101628
Hurden,8,5,9,88.9,55.6,0 days 00:08:56,0 days 00:07:56,47.214146345630695,8.800745727606714
Knonau,1,2,85,1.2,2.4,0 days 00:13:13,0 days 00:12:57,47.22026434550534,8.466731190077963
Otelfingen,1,1,84,1.2,1.2,0 days 00:06:27,0 days 00:06:04,47.45493620253032,8.387532432091914
Zürich Affoltern,1,1,84,1.2,1.2,0 days 00:07:45,0 days 00:06:53,47.420908945595656,8.508582557719752
Buchs-Dällikon,1,1,84,1.2,1.2,0 days 00:06:08,0 days 00:05:46,47.45340531179032,8.435601743967265
Würenlos,28,1,84,33.3,1.2,0 days 00:05:09,0 days 00:05:43,47.44575947163118,8.357667806321556
Regensdorf-Watt,1,1,84,1.2,1.2,0 days 00:06:01,0 days 00:06:25,47.43656352578831,8.472084926958399
Stäfa,0,0,88,0.0,0.0,0 days 00:01:48,0 days 00:02:09,47.240527198456455,8.72165286993619
Männedorf,2,0,88,2.3,0.0,0 days 00:03:15,0 days 00:02:25,47.253424027683415,8.692346117155436
Opfikon,3,3,84,3.6,3.6,0 days 00:08:49,0 days 00:08:48,47.42995484385176,8.561794794911757
Kloten Balsberg,4,3,84,4.8,3.6,0 days 00:08:50,0 days 00:08:44,47.44229037022977,8.570718492852404
Bäch SZ,6,6,86,7.0,7.0,0 days 00:09:40,0 days 00:09:18,47.20098164192581,8.727174268610481
Pfäffikon ZH,1,1,82,1.2,1.2,0 days 00:03:58,0 days 00:04:18,47.36708623786168,8.784799698482088
Au ZH,7,3,86,8.1,3.5,0 days 00:07:44,0 days 00:07:16,47.2468179444234,8.643725909034172
Richterswil,11,6,157,7.0,3.8,0 days 00:09:02,0 days 00:08:36,47.208374997059074,8.707481355037771
Freienbach SBB,6,6,86,7.0,7.0,0 days 00:09:10,0 days 00:08:39,47.2073107080164,8.756218599729324
Illnau,5,2,82,6.1,2.4,0 days 00:05:23,0 days 00:04:30,47.40881918966084,8.722727521427508
Oberrieden,7,4,86,8.1,4.7,0 days 00:08:04,0 days 00:07:30,47.279676321148415,8.57846058770246
Horgen,5,5,157,3.2,3.2,0 days 00:07:18,0 days 00:07:48,47.26148337461028,8.596916996571368
Bülach,1,1,119,0.8,0.8,0 days 00:06:34,0 days 00:07:20,47.52394992292488,8.53620919890506
Niederglatt ZH,2,2,84,2.4,2.4,0 days 00:08:23,0 days 00:07:51,47.48747102012029,8.503315575552104
Eclépens,0,0,42,0.0,0.0,0 days 00:02:44,0 days 00:02:14,46.65719065799183,6.55242112332029
Ependes VD,4,2,42,9.5,4.8,0 days 00:04:03,0 days 00:03:15,46.74641611110667,6.607661874433928
Yverdon-les-Bains,22,16,230,9.6,7.0,0 days 00:24:40,0 days 00:25:18,46.78154518698354,6.640944001506527
Grandson,1,2,79,1.3,2.5,0 days 00:03:02,0 days 00:04:09,46.80628338337734,6.641943740303492
Grandvaux,4,3,80,5.0,3.8,0 days 00:16:12,0 days 00:15:45,46.49694824046734,6.722650186115819
Henniez,1,1,31,3.2,3.2,0 days 00:11:26,0 days 00:10:47,46.73500140626439,6.87010587846571
Dompierre FR,3,2,38,7.9,5.3,0 days 00:11:09,0 days 00:10:25,46.85440276234438,6.98536880347736
Palézieux,9,9,183,4.9,4.9,0 days 00:15:40,0 days 00:15:22,46.54276359358115,6.837875276813898
Bossière,5,3,41,12.2,7.3,0 days 00:15:23,0 days 00:14:59,46.50974851437563,6.699321762374976
Lausanne,39,28,576,6.8,4.9,0 days 00:16:40,0 days 00:17:17,46.51679183546505,6.629092303198572
Morges,74,71,340,21.8,20.9,0 days 00:29:22,0 days 00:31:08,46.51110119786621,6.493969500635285
Chavornay,6,5,80,7.5,6.2,0 days 00:03:49,0 days 00:03:20,46.71008452939175,6.568163247022746
Prilly-Malley,6,4,203,3.0,2.0,0 days 00:13:22,0 days 00:13:49,46.52669197652311,6.6026289392506525
Le Day,3,3,121,2.5,2.5,0 days 00:04:41,0 days 00:05:07,46.72003152823104,6.399023786518672
La Sarraz,3,1,82,3.7,1.2,0 days 00:03:48,0 days 00:03:07,46.65878497157616,6.517361004533222
Cossonay-Penthalaz,3,2,162,1.9,1.2,0 days 00:03:39,0 days 00:03:35,46.6060100852867,6.523689168142412
Bussigny,2,1,162,1.2,0.6,0 days 00:04:08,0 days 00:03:36,46.547590367464494,6.551826149226752
Epesses,4,2,43,9.3,4.7,0 days 00:03:37,0 days 00:03:18,46.48932879519122,6.745166034120104
La Tour-de-Peilz,4,5,82,4.9,6.1,0 days 00:04:25,0 days 00:04:47,46.45545289156488,6.859532673443139
St-Maurice,7,7,87,8.0,8.0,0 days 00:11:35,0 days 00:14:32,46.21636950282697,7.00204389824896
Aigle,13,11,193,6.7,5.7,0 days 00:15:24,0 days 00:15:57,46.31685541859813,6.963683211861402
Villeneuve VD,8,6,107,7.5,5.6,0 days 00:16:29,0 days 00:16:57,46.3983715064178,6.927003108049976
Clarens,4,2,82,4.9,2.4,0 days 00:04:50,0 days 00:04:20,46.44273829900727,6.8957799366107455
Burier,4,5,82,4.9,6.1,0 days 00:04:36,0 days 00:05:02,46.44788647497887,6.877121824811778
Villette VD,2,2,43,4.7,4.7,0 days 00:03:33,0 days 00:03:15,46.49542481880895,6.707377298812546
Croy-Romainmôtier,2,2,82,2.4,2.4,0 days 00:04:04,0 days 00:03:07,46.69671231859737,6.4781162685524185
Vallorbe,3,3,52,5.8,5.8,0 days 00:07:44,0 days 00:07:05,46.7124063243017,6.370565635407371
St-Prex,27,26,121,22.3,21.5,0 days 00:15:09,0 days 00:15:54,46.4823169063062,6.455906017304926
Lonay-Préverenges,16,12,81,19.8,14.8,0 days 00:12:30,0 days 00:11:39,46.52313562904891,6.519544736654456
Denges-Echandens,12,12,81,14.8,14.8,0 days 00:13:22,0 days 00:13:31,46.52912709914973,6.540505481883312
Renens VD,24,26,327,7.3,8.0,0 days 00:21:40,0 days 00:21:37,46.5370424668982,6.578935338085809
Pully-Nord,4,4,80,5.0,5.0,0 days 00:15:03,0 days 00:14:33,46.51468146448523,6.657987606597673
Cheyres,12,7,76,15.8,9.2,0 days 00:13:32,0 days 00:13:02,46.81694583078512,6.786393706697188
Estavayer-le-Lac,10,8,76,13.2,10.5,0 days 00:13:47,0 days 00:13:06,46.8444988486804,6.842967233408461
Cugy FR,13,11,76,17.1,14.5,0 days 00:13:39,0 days 00:13:13,46.81602827918356,6.889164589874837
Yvonand,10,7,76,13.2,9.2,0 days 00:13:53,0 days 00:13:35,46.8008754891758,6.746687333359221
Payerne,12,8,145,8.3,5.5,0 days 00:11:34,0 days 00:12:19,46.81964995917924,6.939884923199121
Givisiez,7,4,74,9.5,5.4,0 days 00:10:39,0 days 00:10:27,46.816755948016834,7.12996152131327
Belfaux CFF,4,3,74,5.4,4.1,0 days 00:10:25,0 days 00:10:08,46.81692461024266,7.106230136105958
Grolley,4,4,74,5.4,5.4,0 days 00:11:11,0 days 00:10:38,46.83197884477917,7.066052544374656
Corcelles-Sud,8,5,74,10.8,6.8,0 days 00:12:02,0 days 00:11:46,46.8288473733036,6.957192176936627
Léchelles,3,3,74,4.1,4.1,0 days 00:11:15,0 days 00:10:51,46.8284597332873,7.011627004942881
Fribourg/Freiburg,17,13,158,10.8,8.2,0 days 00:20:37,0 days 00:19:44,46.80314817217614,7.151046883336622
Cousset,4,3,74,5.4,4.1,0 days 00:11:31,0 days 00:11:07,46.81860488055191,6.977491130713583
Yverdon-Champ Pittet,10,8,76,13.2,10.5,0 days 00:12:08,0 days 00:12:40,46.7821495936614,6.662320118216995
Lugano,15,12,301,5.0,4.0,0 days 00:12:32,0 days 00:13:16,46.0055005499147,8.94699530850776
Zofingen,9,7,250,3.6,2.8,0 days 00:16:00,0 days 00:16:00,47.28805253539382,7.943117673978091
Chiasso,25,12,177,14.1,6.8,0 days 00:15:37,0 days 00:14:43,45.832168026366816,9.031449562314268
Neuchâtel,21,15,264,8.0,5.7,0 days 00:24:10,0 days 00:18:25,46.99672679256177,6.935701694124805
Biel/Bienne,19,7,418,4.5,1.7,0 days 00:19:04,0 days 00:18:34,47.13289787086168,7.242910603227559
Grenchen Süd,13,14,119,10.9,11.8,0 days 00:17:47,0 days 00:17:32,47.1887746886701,7.398180061160913
Solothurn,11,15,222,5.0,6.8,0 days 00:19:08,0 days 00:19:22,47.20419250287765,7.542689210978396
Oensingen,7,5,174,4.0,2.9,0 days 00:13:39,0 days 00:15:12,47.2850351055756,7.709870322003079
Moutier,7,9,145,4.8,6.2,0 days 00:09:38,0 days 00:10:18,47.280672517477576,7.381044296269599
Grenchen Nord,4,4,73,5.5,5.5,0 days 00:10:46,0 days 00:10:59,47.19169820509852,7.389618662888506
Laufen,4,5,124,3.2,4.0,0 days 00:05:34,0 days 00:05:57,47.419346483524805,7.502636130936873
Delémont,6,6,128,4.7,4.7,0 days 00:06:02,0 days 00:08:16,47.36201270009398,7.350063323401273
Rheinfelden Augarten,4,3,83,4.8,3.6,0 days 00:17:24,0 days 00:17:14,47.54587823442721,7.768031874304913
Muttenz,9,7,172,5.2,4.1,0 days 00:17:08,0 days 00:16:53,47.533591211897104,7.647894426908635
Kaiseraugst,4,3,83,4.8,3.6,0 days 00:17:08,0 days 00:16:50,47.53849572666361,7.724135542431692
Mumpf,5,4,44,11.4,9.1,0 days 00:18:32,0 days 00:18:14,47.54762608945331,7.909624389373159
Frenkendorf-Füllinsdorf,9,6,86,10.5,7.0,0 days 00:08:35,0 days 00:08:06,47.50146999108255,7.719110531551347
Sissach,14,14,187,7.5,7.5,0 days 00:29:29,0 days 00:26:31,47.46275411686196,7.812027570472962
Basel Dreispitz,3,2,88,3.4,2.3,0 days 00:04:40,0 days 00:04:35,47.53743606333004,7.60959592011994
Dornach-Arlesheim,2,2,88,2.3,2.3,0 days 00:05:05,0 days 00:04:44,47.48861983603079,7.611118941847514
Aesch BL,2,3,88,2.3,3.4,0 days 00:05:27,0 days 00:05:08,47.46774466229042,7.603068210227584
Sierre/Siders,6,4,71,8.5,5.6,0 days 00:10:00,0 days 00:05:13,46.29212156381743,7.532825555815483
Pratteln Salina Raurica,4,4,83,4.8,4.8,0 days 00:17:59,0 days 00:17:42,47.53058808616203,7.709889076016984
Montreux,20,17,195,10.3,8.7,0 days 00:17:00,0 days 00:17:18,46.43588434112021,6.910440121305958
Eiken,4,3,42,9.5,7.1,0 days 00:07:34,0 days 00:07:23,47.53304427369629,7.989797553151227
Möhlin,6,5,85,7.1,5.9,0 days 00:17:36,0 days 00:18:14,47.56185846600764,7.8338626581120545
Martigny,5,4,74,6.8,5.4,0 days 00:05:16,0 days 00:03:53,46.10583120717477,7.07912412848979
Vevey,15,17,258,5.8,6.6,0 days 00:16:24,0 days 00:16:16,46.46300181065662,6.8434455982384
Leuk,4,4,38,10.5,10.5,0 days 00:09:04,0 days 00:08:49,46.31157951165387,7.644936502768722
Zwingen,1,1,88,1.1,1.1,0 days 00:03:03,0 days 00:03:06,47.43379918730451,7.530463031351538
Glovelier,8,7,84,9.5,8.3,0 days 00:07:40,0 days 00:06:35,47.33520951994376,7.209312768167123
Duggingen,3,2,88,3.4,2.3,0 days 00:06:00,0 days 00:05:52,47.45344485945267,7.603460736311324
Itingen,9,6,86,10.5,7.0,0 days 00:18:17,0 days 00:08:37,47.46727871777734,7.787225979669531
Münchenstein,4,2,88,4.5,2.3,0 days 00:04:49,0 days 00:04:30,47.51339736244532,7.617596690256688
Tecknau,3,2,82,3.7,2.4,0 days 00:05:34,0 days 00:24:10,47.44576020690113,7.887618191018744
Lausen,8,8,86,9.3,9.3,0 days 00:09:18,0 days 00:08:46,47.47034467249265,7.759762813994755
Bassecourt,11,7,84,13.1,8.3,0 days 00:07:06,0 days 00:07:14,47.33668687681137,7.246846233509847
Porrentruy,1,3,84,1.2,3.6,0 days 00:05:18,0 days 00:05:58,47.42091638308312,7.080077285085159
Gelterkinden,11,7,118,9.3,5.9,0 days 00:23:31,0 days 00:23:03,47.46589371982805,7.847667221573364
Grellingen,1,0,88,1.1,0.0,0 days 00:05:38,0 days 00:02:27,47.4412948952394,7.591988354792369
Courtételle,7,7,84,8.3,8.3,0 days 00:05:04,0 days 00:04:37,47.342829008594485,7.31794276823699
St-Ursanne,12,10,84,14.3,11.9,0 days 00:08:39,0 days 00:08:12,47.36770290339109,7.165957053541903
Courgenay,7,4,84,8.3,4.8,0 days 00:07:33,0 days 00:07:41,47.40522617645749,7.124205043857654
Courfaivre,16,9,84,19.0,10.7,0 days 00:07:26,0 days 00:05:53,47.33508312531987,7.291165742215081
Bex,8,7,51,15.7,13.7,0 days 00:14:44,0 days 00:15:10,46.25146458228652,7.000669902355405
Sion,6,5,81,7.4,6.2,0 days 00:18:49,0 days 00:20:10,46.227553196395895,7.359197034574581
Nyon,31,29,188,16.5,15.4,0 days 00:20:04,0 days 00:19:50,46.384418967533634,6.235966130629612
Laufenburg,0,1,37,0.0,2.7,0 days 00:00:57,0 days 00:06:55,47.5597684229445,8.06129613291256
Bilten,4,2,12,33.3,16.7,0 days 00:04:09,0 days 00:04:02,47.15219293595688,9.029918268569832
Reichenburg,3,3,16,18.8,18.8,0 days 00:04:58,0 days 00:04:17,47.17269821760328,8.982322645441851
Altendorf,9,5,81,11.1,6.2,0 days 00:08:19,0 days 00:08:04,47.19396706593207,8.822905848209773
Le Pont,0,0,36,0.0,0.0,0 days 00:02:28,0 days 00:02:31,46.66866749159968,6.324719892418338
Le Rocheray,2,2,36,5.6,5.6,0 days 00:04:12,0 days 00:03:48,46.62445724420983,6.250263659575705
Le Séchey,2,0,36,5.6,0.0,0 days 00:04:18,0 days 00:01:34,46.65847612898224,6.306011996084794
Le Brassus,0,0,36,0.0,0.0,0 days 00:00:30,0 days 00:01:19,46.58554394143053,6.213944883183952
Les Esserts-de-Rive,2,2,36,5.6,5.6,0 days 00:04:36,0 days 00:04:49,46.63198425635682,6.260368353724561
Buix,0,0,40,0.0,0.0,0 days 00:02:11,0 days 00:01:50,47.47933325623299,7.029967263634954
Boncourt,0,0,40,0.0,0.0,0 days 00:01:53,0 days 00:01:58,47.49263186836306,7.016551752254877
Courtemaîche,0,0,40,0.0,0.0,0 days 00:01:46,0 days 00:02:57,47.45586918373691,7.055380175122521
Kempten,3,1,75,4.0,1.3,0 days 00:05:24,0 days 00:04:49,47.3320431153286,8.804720692502974
Fehraltorf,2,2,82,2.4,2.4,0 days 00:04:22,0 days 00:03:53,47.385122805195785,8.750288115044176
Walchwil Hörndli,4,1,40,10.0,2.5,0 days 00:05:40,0 days 00:04:51,47.10846112075435,8.504777634734845
Flüelen,1,1,41,2.4,2.4,0 days 00:05:38,0 days 00:03:02,46.90173016545787,8.624302653092034
Schwyz,1,0,78,1.3,0.0,0 days 00:03:19,0 days 00:02:56,47.02639719104317,8.632151708388978
Zug Oberwil,2,2,40,5.0,5.0,0 days 00:04:46,0 days 00:04:27,47.14768364168662,8.50994051686946
Erstfeld,0,0,39,0.0,0.0,0 days 00:01:35,0 days 00:02:34,46.82033940886055,8.650454640226307
Brunnen,2,0,78,2.6,0.0,0 days 00:03:07,0 days 00:02:50,46.99917491314123,8.610067661012486
Steinen,11,7,78,14.1,9.0,0 days 00:06:41,0 days 00:04:16,47.04766863926213,8.607449314258474
Zug Casino,2,2,40,5.0,5.0,0 days 00:04:31,0 days 00:04:05,47.16231812520972,8.515202728612481
Altdorf UR,9,4,59,15.3,6.8,0 days 00:07:36,0 days 00:06:43,46.87573871327732,8.631575417442793
Walchwil,1,1,40,2.5,2.5,0 days 00:05:07,0 days 00:04:48,47.09868699550933,8.516934393756012
Zug Postplatz,5,2,40,12.5,5.0,0 days 00:05:36,0 days 00:04:36,47.168275682214095,8.516937376566682
Zug Fridbach,2,3,40,5.0,7.5,0 days 00:05:05,0 days 00:05:11,47.15658113784232,8.512291781935305
Sisikon,3,2,39,7.7,5.1,0 days 00:03:55,0 days 00:03:25,46.94925401457026,8.620748727674636
Meggen Zentrum,0,0,51,0.0,0.0,0 days 00:02:57,0 days 00:02:05,47.04519444665047,8.374393056840894
Luzern Verkehrshaus,0,0,51,0.0,0.0,0 days 00:02:34,0 days 00:01:56,47.05393231646877,8.33729732768245
Küssnacht am Rigi,1,0,51,2.0,0.0,0 days 00:05:06,0 days 00:02:29,47.083594155220936,8.433517457319269
Immensee,1,1,46,2.2,2.2,0 days 00:04:35,0 days 00:05:19,47.09161865910385,8.46267203624508
Merlischachen,0,0,48,0.0,0.0,0 days 00:02:28,0 days 00:01:58,47.06765998438471,8.409058146938582
Meggen,0,0,48,0.0,0.0,0 days 00:02:09,0 days 00:01:33,47.05014779580283,8.38306144387713
Hochdorf,2,2,75,2.7,2.7,0 days 00:04:13,0 days 00:03:41,47.16697518871663,8.28869962431495
Baldegg,5,5,69,7.2,7.2,0 days 00:05:17,0 days 00:04:48,47.18568895916557,8.280231508343205
Gelfingen,5,3,69,7.2,4.3,0 days 00:05:35,0 days 00:05:17,47.21355903877232,8.26482492435437
Hallwil,3,1,62,4.8,1.6,0 days 00:04:35,0 days 00:03:58,47.32863875662228,8.17594945532923
Mosen,9,5,69,13.0,7.2,0 days 00:11:01,0 days 00:10:44,47.24429231495202,8.224159651309774
Hochdorf Schönau,7,2,75,9.3,2.7,0 days 00:05:29,0 days 00:04:39,47.16456932341684,8.298733635090635
Waldibrücke,5,2,75,6.7,2.7,0 days 00:05:57,0 days 00:04:48,47.10789934285911,8.319710091821639
Eschenbach LU,5,4,75,6.7,5.3,0 days 00:05:29,0 days 00:05:23,47.13239599982784,8.322790731804622
Baldegg Kloster,5,5,69,7.2,7.2,0 days 00:04:39,0 days 00:04:25,47.18061602969319,8.280597542946799
Ermensee,9,5,69,13.0,7.2,0 days 00:10:45,0 days 00:10:01,47.229690615754194,8.242314423575365
Seon,4,1,62,6.5,1.6,0 days 00:03:37,0 days 00:03:45,47.34614895652375,8.15880738977996
Seon Nord,31,0,62,50.0,0.0,0 days 00:05:49,0 days 00:02:42,47.35315656566961,8.160253101708864
Boniswil,1,1,62,1.6,1.6,0 days 00:04:44,0 days 00:04:17,47.31503873659609,8.184560549260691
Beinwil am See,3,2,70,4.3,2.9,0 days 00:08:14,0 days 00:06:25,47.26721985887341,8.202235544537363
Birrwil,5,1,62,8.1,1.6,0 days 00:05:18,0 days 00:04:26,47.28785660045192,8.199017331886743
Ballwil,7,3,75,9.3,4.0,0 days 00:06:21,0 days 00:05:21,47.153767655310126,8.316898802052265
Hitzkirch,6,3,69,8.7,4.3,0 days 00:07:16,0 days 00:08:27,47.22267273480355,8.252001025629596
Puidoux,4,4,146,2.7,2.7,0 days 00:14:47,0 days 00:14:17,46.49384122879209,6.765686484646686
La Conversion,4,4,80,5.0,5.0,0 days 00:15:11,0 days 00:14:46,46.51308449748618,6.678323596771186
Allaman,28,38,204,13.7,18.6,0 days 00:18:23,0 days 00:17:41,46.47575352079991,6.399697079747334
Moreillon,4,2,44,9.1,4.5,0 days 00:15:17,0 days 00:14:58,46.50839811665493,6.78564542808098
Etoy,29,30,121,24.0,24.8,0 days 00:15:56,0 days 00:15:51,46.475172741371445,6.427135355558961
Morges-St-Jean,14,13,81,17.3,16.0,0 days 00:12:20,0 days 00:11:48,46.518195362853874,6.5080440329077245
Chexbres-Village,1,1,36,2.8,2.8,0 days 00:03:24,0 days 00:03:26,46.48105723603592,6.778537790555145
Vevey-Funi,1,1,36,2.8,2.8,0 days 00:03:45,0 days 00:03:51,46.46827670459154,6.835443290340249
Corseaux-Cornalles,1,1,36,2.8,2.8,0 days 00:04:53,0 days 00:04:15,46.47045139363703,6.824780802917796
Palézieux-Village,3,2,61,4.9,3.3,0 days 00:11:16,0 days 00:10:49,46.557113199779806,6.828874524740348
Moudon,1,1,61,1.6,1.6,0 days 00:10:58,0 days 00:11:27,46.66805734102318,6.802507939012097
Lucens,2,2,61,3.3,3.3,0 days 00:11:37,0 days 00:10:54,46.707771374509534,6.8421502331077
Ecublens-Rue,1,2,61,1.6,3.3,0 days 00:10:56,0 days 00:10:21,46.61043023973681,6.811054981244529
Granges-Marnand,3,1,61,4.9,1.6,0 days 00:11:39,0 days 00:11:03,46.75884492426054,6.8942897289298015
Corcelles-Nord,5,3,38,13.2,7.9,0 days 00:10:40,0 days 00:10:29,46.83526211170653,6.96029447415191
Avenches,2,1,38,5.3,2.6,0 days 00:12:00,0 days 00:10:48,46.88460159766171,7.0409253236567135
Domdidier,3,1,38,7.9,2.6,0 days 00:11:12,0 days 00:11:43,46.86851205897102,7.011382575288416
Galmiz,2,1,37,5.4,2.7,0 days 00:04:21,0 days 00:04:08,46.95087062612547,7.1532073438305686
Faoug,2,1,38,5.3,2.6,0 days 00:12:18,0 days 00:11:55,46.90831034781733,7.074546229779951
Muntelier-Löwenberg,5,3,37,13.5,8.1,0 days 00:03:55,0 days 00:04:23,46.93797415143368,7.133261520616002
Kerzers,0,1,37,0.0,2.7,0 days 00:02:12,0 days 00:03:11,46.975078963310175,7.1928101680696335
Châtillens,2,2,61,3.3,3.3,0 days 00:11:29,0 days 00:10:53,46.57053302432071,6.815481520130104
Murten/Morat,1,1,38,2.6,2.6,0 days 00:03:28,0 days 00:10:45,46.925346691204986,7.115282647470426
Romont FR,7,6,44,15.9,13.6,0 days 00:14:45,0 days 00:14:37,46.69350826123407,6.911811420121691
Paradiso,22,12,180,12.2,6.7,0 days 00:14:01,0 days 00:13:21,45.98937263977189,8.94688975243035
Giubiasco,8,8,243,3.3,3.3,0 days 00:05:58,0 days 00:06:57,46.17381273153785,9.003600088956835
Mezzovico,5,4,88,5.7,4.5,0 days 00:05:08,0 days 00:04:53,46.094275959945634,8.928590304571124
Mendrisio S. Martino,8,2,120,6.7,1.7,0 days 00:04:53,0 days 00:03:39,45.877220199283855,8.983092720478137
Melide,9,3,120,7.5,2.5,0 days 00:04:13,0 days 00:03:29,45.95571350204011,8.948359195118208
Biasca,0,0,77,0.0,0.0,0 days 00:01:03,0 days 00:01:26,46.35198415240514,8.974179216857172
Rivera-Bironico,6,3,88,6.8,3.4,0 days 00:05:38,0 days 00:05:17,46.12397655313699,8.925286196548088
Mendrisio,9,7,262,3.4,2.7,0 days 00:13:24,0 days 00:13:52,45.869108608030494,8.978610919620094
Capolago-Riva S. Vitale,6,4,120,5.0,3.3,0 days 00:04:04,0 days 00:03:20,45.902837295752974,8.97890525714865
Castione-Arbedo,2,1,156,1.3,0.6,0 days 00:03:57,0 days 00:03:21,46.22292165313785,9.041461806217397
Airolo,0,0,3,0.0,0.0,0 days 00:01:38,0 days 00:02:01,46.52752595779199,8.608619755602403
Balerna,3,3,86,3.5,3.5,0 days 00:06:20,0 days 00:05:59,45.84674505678704,9.005035609410806
Maroggia-Melano,4,1,121,3.3,0.8,0 days 00:04:03,0 days 00:03:44,45.93243507651572,8.973939801785004
Maccagno,4,4,16,25.0,25.0,0 days 00:06:40,0 days 00:06:17,,
Cadenazzo,11,6,173,6.4,3.5,0 days 00:13:27,0 days 00:12:30,46.15261998873876,8.941698899788753
Pino-Tronzano,6,3,16,37.5,18.8,0 days 00:09:01,0 days 00:06:03,,
Colmegna,5,5,16,31.2,31.2,0 days 00:07:02,0 days 00:06:08,,
Magadino-Vira,2,2,16,12.5,12.5,0 days 00:07:38,0 days 00:07:13,46.14531571778223,8.850189043325267
Gerra (Gambarogno),7,7,16,43.8,43.8,0 days 00:10:24,0 days 00:10:24,46.122040960463664,8.784969770595186
S. Nazzaro,3,3,16,18.8,18.8,0 days 00:08:49,0 days 00:08:23,46.13515769040707,8.80705868101486
Quartino,3,3,16,18.8,18.8,0 days 00:07:57,0 days 00:07:38,46.15129808923592,8.887331214589468
Ranzo-S. Abbondio,5,5,16,31.2,31.2,0 days 00:10:11,0 days 00:09:29,46.11699781417891,8.776537709454367
Riazzino,9,6,157,5.7,3.8,0 days 00:14:28,0 days 00:14:18,46.17533630314796,8.886397373657436
Locarno,0,2,157,0.0,1.3,0 days 00:02:07,0 days 00:12:54,46.17242018943651,8.801360899263416
Minusio,7,2,157,4.5,1.3,0 days 00:14:44,0 days 00:14:29,46.17400592475709,8.819566342232658
Tenero,3,3,157,1.9,1.9,0 days 00:14:17,0 days 00:13:42,46.17746745868609,8.85022618523051
S. Antonino,14,13,158,8.9,8.2,0 days 00:13:10,0 days 00:12:36,46.15904913855444,8.969520646035745
Gordola,14,7,157,8.9,4.5,0 days 00:15:48,0 days 00:14:08,46.17904027239146,8.865773290075774
Stabio,1,1,40,2.5,2.5,0 days 00:08:28,0 days 00:03:23,45.84970965539959,8.94394221428631
Lamone-Cadempino,2,1,84,2.4,1.2,0 days 00:04:23,0 days 00:04:04,46.03971861506996,8.932125023197237
Herzogenbuchsee,1,1,2,50.0,50.0,0 days 00:03:39,0 days 00:03:34,47.18808612825785,7.70095826852794
Langenthal,1,0,69,1.4,0.0,0 days 00:03:03,0 days 00:02:39,47.21730287148524,7.784715135554721
Walenstadt,0,0,1,0.0,0.0,0 days 00:00:30,,47.11987360855112,9.312981453330115
Bad Ragaz,4,2,32,12.5,6.2,0 days 00:04:07,0 days 00:04:40,47.01030947810428,9.505224978107687
Bavois,1,0,42,2.4,0.0,0 days 00:03:12,0 days 00:02:31,46.68767991038704,6.559334852363642
Essert-Pittet,1,1,42,2.4,2.4,0 days 00:03:52,0 days 00:03:22,46.72767332068426,6.580655818453199
Vufflens-la-Ville,2,0,84,2.4,0.0,0 days 00:03:35,0 days 00:02:38,46.576244980897606,6.5307675996123775
Territet,3,3,43,7.0,7.0,0 days 00:05:17,0 days 00:04:52,46.42638156553879,6.922706951005673
Roche VD,3,3,43,7.0,7.0,0 days 00:05:28,0 days 00:04:22,46.35869637210566,6.927052837461041
Pully,3,3,82,3.7,3.7,0 days 00:04:06,0 days 00:03:35,46.5109236231816,6.659468140211437
Bretonnières,1,1,42,2.4,2.4,0 days 00:03:26,0 days 00:04:04,46.715055329929,6.474732504265312
Arnex,1,1,82,1.2,1.2,0 days 00:03:14,0 days 00:03:19,46.6980776528438,6.51890716328841
St-Saphorin,3,2,43,7.0,4.7,0 days 00:04:20,0 days 00:03:36,46.47259370775284,6.797033689379044
Veytaux-Chillon,3,2,43,7.0,4.7,0 days 00:05:03,0 days 00:04:35,46.41762119586779,6.927860782293662
Rivaz,1,3,43,2.3,7.0,0 days 00:03:19,0 days 00:03:30,46.47420773607816,6.784594982914345
Lutry,3,1,82,3.7,1.2,0 days 00:03:39,0 days 00:03:02,46.50378676835819,6.690609436558635
Cully,3,2,82,3.7,2.4,0 days 00:03:39,0 days 00:03:21,46.48856179169186,6.727151466849018
Eglisau,1,1,76,1.3,1.3,0 days 00:03:36,0 days 00:03:16,47.57237454699683,8.516558015858315
Hüntwangen-Wil,2,0,76,2.6,0.0,0 days 00:03:28,0 days 00:02:50,47.5812688988791,8.512848049738306
Lottstetten,5,2,56,8.9,3.6,0 days 00:04:46,0 days 00:03:58,,
Rafz,1,2,76,1.3,2.6,0 days 00:03:08,0 days 00:03:33,47.6037967951202,8.543451411560936
Neuhausen Rheinfall,8,5,56,14.3,8.9,0 days 00:04:32,0 days 00:03:57,47.67980492622646,8.616946472316068
Jestetten,4,1,56,7.1,1.8,0 days 00:04:35,0 days 00:03:47,,
Glattfelden,4,2,76,5.3,2.6,0 days 00:04:14,0 days 00:03:25,47.54855798112098,8.524055190179887
Taverne-Torricella,3,2,88,3.4,2.3,0 days 00:05:10,0 days 00:04:38,46.05668555743585,8.930330425943067
Klus,0,0,58,0.0,0.0,0 days 00:01:42,0 days 00:01:18,47.304263550595344,7.693792936366679
Thalbrücke,0,0,58,0.0,0.0,0 days 00:01:01,0 days 00:00:37,47.308422052694,7.688271815963861
Balsthal,0,0,58,0.0,0.0,0 days 00:00:12,0 days 00:00:54,47.313193135938086,7.694668708239076
Reuchenette-Péry,1,1,110,0.9,0.9,0 days 00:03:27,0 days 00:03:48,47.18973910147334,7.247024728889667
Sonvilier,1,1,58,1.7,1.7,0 days 00:21:25,0 days 00:21:14,47.14134211864386,6.969352778671168
Renan BE,1,1,58,1.7,1.7,0 days 00:21:53,0 days 00:18:38,47.12572045673996,6.9253820904744
La Chaux-de-Fonds,1,1,202,0.5,0.5,0 days 00:19:12,0 days 00:07:12,47.09837435548115,6.825982721046245
Cormoret,1,1,58,1.7,1.7,0 days 00:20:31,0 days 00:20:06,47.17294709932329,7.054123568207503
Villeret,19,1,58,32.8,1.7,0 days 00:24:13,0 days 00:20:05,47.16020368341404,7.019675173197047
Courtelary,1,1,88,1.1,1.1,0 days 00:03:30,0 days 00:20:12,47.17563154330843,7.068803269981394
Frinvillier-Taubenloch,1,1,80,1.2,1.2,0 days 00:03:42,0 days 00:03:16,47.16945779658899,7.257529276223134
Sorvilier,2,0,72,2.8,0.0,0 days 00:03:08,0 days 00:02:53,47.23935383042611,7.305793604162893
Tavannes,0,0,72,0.0,0.0,0 days 00:02:48,0 days 00:02:36,47.219844660310535,7.201645389619081
Malleray-Bévilard,4,0,72,5.6,0.0,0 days 01:01:10,0 days 00:02:21,47.23871419185093,7.275946266502286
Pontenet,6,4,72,8.3,5.6,0 days 00:03:28,0 days 01:00:58,47.23884832497655,7.254159257906262
Reconvilier,4,1,72,5.6,1.4,0 days 00:03:40,0 days 00:03:25,47.23523833293629,7.227417925338895
Court,9,0,72,12.5,0.0,0 days 00:05:02,0 days 00:02:26,47.2406009156444,7.342109877725172
St-Imier,2,3,88,2.3,3.4,0 days 00:21:02,0 days 00:20:22,47.151711081164734,7.00122388741089
Flawil,4,3,81,4.9,3.7,0 days 00:11:53,0 days 00:11:22,47.41518938373985,9.189785591411312
Gossau SG,4,4,81,4.9,4.9,0 days 00:10:10,0 days 00:10:31,47.41183157854838,9.253050693333575
Göschenen,1,0,2,50.0,0.0,0 days 00:03:21,,46.665814939433695,8.588808225484476
Altstätten SG,0,0,32,0.0,0.0,0 days 00:02:06,0 days 00:01:27,47.37423480706264,9.556519883564428
Wil SG,3,3,81,3.7,3.7,0 days 00:12:17,0 days 00:12:25,47.46241324274372,9.040993050468307
St. Margrethen SG,7,3,45,15.6,6.7,0 days 00:05:28,0 days 00:04:58,47.45321599373101,9.638261920244418
Rorschach,5,4,62,8.1,6.5,0 days 00:06:07,0 days 00:04:37,47.47800197542587,9.505141287395228
Buchs SG,8,8,50,16.0,16.0,0 days 00:17:34,0 days 00:48:06,47.16841197936201,9.478636688917042
Heerbrugg,0,0,32,0.0,0.0,0 days 00:02:09,0 days 00:01:58,47.41039250657927,9.627248828197752
Uzwil,4,3,81,4.9,3.7,0 days 00:12:05,0 days 00:12:03,47.43644399907948,9.130991819304697
Sonceboz-Sombeval,0,0,134,0.0,0.0,,,47.19514835718448,7.168763578557155
Gland,19,19,84,22.6,22.6,0 days 00:16:54,0 days 00:17:15,46.41998647124227,6.269139833631339
Rolle,21,21,83,25.3,25.3,0 days 00:17:26,0 days 00:17:17,46.46274581604107,6.336403807618889
Mettmenstetten,3,2,85,3.5,2.4,0 days 00:14:16,0 days 00:13:48,47.24407106505279,8.45738217922635
Jona,11,7,159,6.9,4.4,0 days 00:15:42,0 days 00:13:23,47.230976641512754,8.834618052524483
Steinhausen Rigiblick,5,3,78,6.4,3.8,0 days 00:13:34,0 days 00:13:20,47.18786377023681,8.479703872985537
Steinhausen,2,2,78,2.6,2.6,0 days 00:13:14,0 days 00:12:55,47.19458148019289,8.478436559235814
Zürich Seebach,11,1,84,13.1,1.2,0 days 00:07:31,0 days 00:04:43,47.418750047096616,8.544660215512566
Otelfingen Golfpark,5,1,76,6.6,1.3,0 days 00:07:28,0 days 00:06:26,47.45582164359645,8.402113454905269
Uerikon,1,1,81,1.2,1.2,0 days 00:03:37,0 days 00:03:17,47.235860774724685,8.752625203056988
Kloten,2,2,84,2.4,2.4,0 days 00:07:48,0 days 00:07:14,47.44860728556691,8.583809697460493
Feldbach,0,0,81,0.0,0.0,0 days 00:02:47,0 days 00:02:25,47.239203561365606,8.78349776634606
Nebikon,2,1,82,2.4,1.2,0 days 00:07:21,0 days 00:07:06,47.19238062097451,7.977449481598887
Dagmersellen,3,2,82,3.7,2.4,0 days 00:07:55,0 days 00:07:36,47.21755794081286,7.979025922465623
Reiden,3,2,82,3.7,2.4,0 days 00:07:20,0 days 00:07:08,47.24146837211732,7.968774385627642
Wauwil,3,2,82,3.7,2.4,0 days 00:08:07,0 days 00:07:59,47.18385897475109,8.019020059353005
Wildegg,1,2,112,0.9,1.8,0 days 00:03:33,0 days 00:03:11,47.4152751447489,8.163019908507527
Le Crêt-du-Locle,1,0,76,1.3,0.0,0 days 00:03:19,0 days 00:02:58,47.077232722679575,6.784581290834581
La Chaux-de-Fonds Les Forges,0,0,38,0.0,0.0,0 days 00:02:48,0 days 00:02:09,47.09133532319749,6.8127802604652326
Le Locle,0,0,76,0.0,0.0,0 days 00:02:25,0 days 00:00:33,47.05786104193193,6.746153276317333
Les Deurres,4,3,66,6.1,4.5,0 days 00:06:44,0 days 00:05:57,46.98552471175161,6.899148428806808
Corcelles-Peseux,1,2,66,1.5,3.0,0 days 00:03:24,0 days 00:05:41,46.98335097241861,6.88381355417052
La Heutte,0,0,37,0.0,0.0,,,47.189491807698246,7.225395780990616
Les Geneveys-sur-Coffrane,1,1,38,2.6,2.6,0 days 00:09:08,0 days 00:09:45,47.01509638874259,6.853217632174566
Les Hauts-Geneveys,1,1,38,2.6,2.6,0 days 00:08:29,0 days 00:08:16,47.04717656310454,6.874673129276449
Chambrelien,1,1,38,2.6,2.6,0 days 00:09:45,0 days 00:07:09,46.96710900772342,6.812256765419986
Wohlen AG,0,0,115,0.0,0.0,0 days 00:02:26,0 days 00:02:49,47.34846403595199,8.269792338707036
Schönenwerd SO,4,3,77,5.2,3.9,0 days 00:07:45,0 days 00:07:23,47.371423870608616,8.00015839874455
Chez-le-Maître-Ecoles,3,7,36,8.3,19.4,0 days 00:03:39,0 days 00:05:37,46.599460647877486,6.22215117048849
Le Solliat-La Golisse,1,2,36,2.8,5.6,0 days 00:03:08,0 days 00:03:42,46.61440647573065,6.239022951719967
Le Lieu,2,2,36,5.6,5.6,0 days 00:04:59,0 days 00:03:44,46.64689995822125,6.283407201199825
Les Charbonnières,1,0,36,2.8,0.0,0 days 00:03:30,0 days 00:02:18,46.6642945398443,6.317044772809531
Le Sentier-L'Orient,3,0,36,8.3,0.0,0 days 00:04:16,0 days 00:02:39,46.60579116903976,6.231426553417619
Trimbach,1,0,28,3.6,0.0,0 days 00:03:22,0 days 00:02:28,47.36605219044686,7.904285358541014
Diepflingen,1,0,30,3.3,0.0,0 days 00:03:03,0 days 00:02:57,47.44956050786628,7.837717393677192
Buckten,0,0,30,0.0,0.0,0 days 00:03:00,0 days 00:02:53,47.408991047992814,7.847800531020693
Läufelfingen,0,0,30,0.0,0.0,0 days 00:02:48,0 days 00:01:58,47.3921328916364,7.856231577273943
Rümlingen,1,0,30,3.3,0.0,0 days 00:03:11,0 days 00:02:51,47.42537925471306,7.850541943493694
Sommerau,2,0,30,6.7,0.0,0 days 00:03:20,0 days 00:02:58,47.43902135793577,7.851481365890911
Travers,0,0,6,0.0,0.0,0 days 00:01:29,0 days 00:01:07,46.94241153500978,6.676561655877891
Courchavon,0,0,40,0.0,0.0,0 days 00:02:57,0 days 00:02:48,47.43977439730051,7.057645955822398
Schübelbach-Buttikon,3,2,16,18.8,12.5,0 days 00:04:37,0 days 00:04:04,47.17638983008548,8.938780973962697
Unterterzen,0,0,26,0.0,0.0,,,47.113856870704566,9.255018377410265
Bevaix,2,1,38,5.3,2.6,0 days 00:05:31,0 days 00:05:01,46.92969622607424,6.8116802678757855
Gorgier-St-Aubin,0,1,38,0.0,2.6,0 days 00:02:55,0 days 00:04:07,46.89907614599237,6.781025965556291
Boudry,2,2,38,5.3,5.3,0 days 00:05:13,0 days 00:04:47,46.95945708722832,6.835047623990482
Auvernier,2,2,38,5.3,5.3,0 days 00:15:06,0 days 00:14:44,46.97964166884437,6.877708044179967
Neuchâtel-Serrières,2,2,38,5.3,5.3,0 days 00:15:41,0 days 00:15:13,46.98396232537705,6.90336268357376
Colombier NE,2,2,38,5.3,5.3,0 days 00:14:29,0 days 00:05:35,46.96765238950404,6.848869743321681
Tüscherz,2,1,42,4.8,2.4,0 days 00:04:19,0 days 00:03:46,47.115007752613046,7.197318365465208
La Neuveville,4,3,42,9.5,7.1,0 days 00:04:17,0 days 00:03:58,47.06283278734388,7.095232412017961
Le Landeron,4,3,42,9.5,7.1,0 days 00:04:34,0 days 00:04:00,47.05663638586615,7.066335333782948
Cressier NE,3,5,42,7.1,11.9,0 days 00:04:09,0 days 00:05:12,47.05195280516074,7.039532072210011
Cornaux NE,4,2,42,9.5,4.8,0 days 00:05:25,0 days 00:04:58,47.03857203125885,7.023365662392411
St-Blaise CFF,3,2,42,7.1,4.8,0 days 00:05:44,0 days 00:05:24,47.014575945943136,6.982110194954693
Ligerz,4,3,42,9.5,7.1,0 days 00:04:38,0 days 00:03:56,47.08376886200854,7.135157149754167
Twann,4,2,42,9.5,4.8,0 days 00:04:33,0 days 00:04:35,47.09366406558639,7.156497503536995
Solothurn Allmend,6,2,77,7.8,2.6,0 days 00:19:22,0 days 00:19:18,47.20888629885865,7.52142705345769
Lengnau BE,7,6,77,9.1,7.8,0 days 00:17:11,0 days 00:16:59,47.17943142325772,7.366553676350064
Selzach,7,5,77,9.1,6.5,0 days 00:18:35,0 days 00:18:23,47.20062403005242,7.456635040201263
Bellach,33,6,77,42.9,7.8,0 days 00:20:43,0 days 00:19:40,47.20887878167503,7.507825396241335
Solothurn West,13,9,139,9.4,6.5,0 days 00:20:07,0 days 00:19:51,47.206717288423214,7.531949150112821
Pieterlen,10,8,77,13.0,10.4,0 days 00:17:05,0 days 00:16:59,47.17144115401003,7.340193538314754
Bettlach,5,5,77,6.5,6.5,0 days 00:18:45,0 days 00:18:31,47.1949494147018,7.428373016753346
Biel Mett,9,6,77,11.7,7.8,0 days 00:17:03,0 days 00:16:55,47.14472528387503,7.272487256323596
Biel/Bienne Bözingenfeld/Champs-de-Boujean,11,7,77,14.3,9.1,0 days 00:16:55,0 days 00:16:50,47.15838230220998,7.294648132740621
Hägendorf,8,7,77,10.4,9.1,0 days 00:04:22,0 days 00:04:28,47.33026780297666,7.843816396453368
Oberbuchsiten,5,5,77,6.5,6.5,0 days 00:05:11,0 days 00:05:08,47.30524722943971,7.771723764143214
Deitingen,5,3,77,6.5,3.9,0 days 00:06:04,0 days 00:07:00,47.21822579770602,7.618913024824969
Luterbach-Attisholz,5,2,77,6.5,2.6,0 days 00:07:56,0 days 00:07:49,47.217149192740685,7.583523459570201
Egerkingen,5,4,77,6.5,5.2,0 days 00:04:09,0 days 00:04:07,47.31486483591506,7.798966473462578
Olten Hammer,11,7,77,14.3,9.1,0 days 00:04:19,0 days 00:03:56,47.34855515899264,7.897723971976287
Niederbipp,6,4,77,7.8,5.2,0 days 00:06:06,0 days 00:06:01,47.2704017343349,7.694818067323204
Wangen an der Aare,3,3,77,3.9,3.9,0 days 00:06:38,0 days 00:06:33,47.23195652523859,7.656234488596417
Wangen bei Olten,9,4,77,11.7,5.2,0 days 00:04:06,0 days 00:03:53,47.341400673101546,7.868360520003613
Langendorf,4,1,62,6.5,1.6,0 days 00:06:47,0 days 00:05:59,47.21786149795084,7.513585431863634
Oberdorf SO,1,1,54,1.9,1.9,0 days 00:05:24,0 days 00:03:16,47.23588345435637,7.493696221432947
Romanshorn,0,1,36,0.0,2.8,0 days 00:02:31,0 days 00:05:04,47.56552286486512,9.379371292262816
Amriswil,2,1,36,5.6,2.8,0 days 00:05:55,0 days 00:05:59,47.550449721216765,9.30222720092554
Dulliken,3,3,80,3.8,3.8,0 days 00:07:54,0 days 00:07:33,47.35427613722325,7.946501331157318
Aarburg-Oftringen,2,3,146,1.4,2.1,0 days 00:06:21,0 days 00:06:07,47.320268469495055,7.908222606719322
Rothrist,1,1,67,1.5,1.5,0 days 00:07:02,0 days 00:06:28,47.30645567944998,7.87939646804038
Däniken SO,7,4,77,9.1,5.2,0 days 00:08:24,0 days 00:08:02,47.35639008752846,7.978771344745681
Murgenthal,3,1,67,4.5,1.5,0 days 00:07:47,0 days 00:07:27,47.26538126991034,7.832105940803532
Roggwil-Wynau,6,2,67,9.0,3.0,0 days 00:08:14,0 days 00:03:14,47.251639651880296,7.814916377827258
Dottikon-Dintikon,1,0,109,0.9,0.0,0 days 00:03:11,0 days 00:02:44,47.37364655615532,8.234710266072673
Hendschiken,1,1,109,0.9,0.9,0 days 00:03:34,0 days 00:03:17,47.38943108161433,8.20738869936813
Muri AG,0,1,115,0.0,0.9,0 days 00:02:21,0 days 00:03:05,47.276666230203496,8.339820727262998
Boswil-Bünzen,0,0,75,0.0,0.0,0 days 00:02:40,0 days 00:02:17,47.30518168341717,8.315283587648393
Sins,1,0,74,1.4,0.0,0 days 00:03:07,0 days 00:02:50,47.18831423671463,8.397830915000554
Oberrüti,4,2,74,5.4,2.7,0 days 00:04:00,0 days 00:03:30,47.16592617211504,8.40477945884867
Benzenschwil,0,0,38,0.0,0.0,0 days 00:02:54,0 days 00:02:37,47.24685150439813,8.365616894910618
Mühlau,1,1,38,2.6,2.6,0 days 00:03:12,0 days 00:03:03,47.22501998719308,8.388524027482994
Rietheim,0,0,38,0.0,0.0,0 days 00:02:08,0 days 00:01:44,47.6007500947489,8.27732794607561
Koblenz Dorf,0,0,38,0.0,0.0,0 days 00:02:29,0 days 00:01:49,47.60938608467445,8.240163896961624
Bad Zurzach,0,0,38,0.0,0.0,0 days 00:00:49,0 days 00:01:22,47.58831339399101,8.29558779477914
Walterswil-Striegel,3,2,66,4.5,3.0,0 days 00:04:13,0 days 00:03:45,47.31992356869371,7.963203602001296
Kölliken,1,0,66,1.5,0.0,0 days 00:03:20,0 days 00:02:55,47.33730018640885,8.0264605444873
Oberentfelden,1,1,66,1.5,1.5,0 days 00:03:32,0 days 00:03:06,47.35648639544815,8.048387123619497
Kölliken Oberdorf,4,1,66,6.1,1.5,0 days 00:03:23,0 days 00:03:06,47.32468319936723,8.01909057756745
Küngoldingen,3,2,66,4.5,3.0,0 days 00:03:49,0 days 00:03:30,47.30214150681235,7.94179667101806
Hunzenschwil,0,0,66,0.0,0.0,0 days 00:02:41,0 days 00:02:02,47.38828588616155,8.12569323096962
Suhr,1,0,66,1.5,0.0,0 days 00:03:04,0 days 00:02:13,47.371635474183,8.08229064021393
Safenwil,0,0,66,0.0,0.0,0 days 00:02:20,0 days 00:03:00,47.32175790242052,7.9835182353423395
Brittnau-Wikon,1,1,45,2.2,2.2,0 days 00:03:42,0 days 00:03:08,47.26266615496052,7.957040848507757
St. Erhard-Knutwil,0,0,44,0.0,0.0,0 days 00:02:58,0 days 00:02:07,47.18008191185555,8.074581534713914
Schinznach Bad,5,4,74,6.8,5.4,0 days 00:03:49,0 days 00:03:38,47.45178516429147,8.166948608446921
Holderbank AG,1,1,74,1.4,1.4,0 days 00:03:51,0 days 00:03:21,47.42864252972158,8.166622369063539
Im Holz,2,1,34,5.9,2.9,0 days 00:04:05,0 days 00:03:13,47.23092079231314,7.474794878451989
Lommiswil,2,0,34,5.9,0.0,0 days 00:03:26,0 days 00:02:47,47.21856495542298,7.469518305975722
Cortébert,0,0,38,0.0,0.0,,,47.18933714817653,7.107309204321052
Corgémont,0,0,38,0.0,0.0,,,47.19339876795823,7.1446614596703
Basel St. Johann,1,0,14,7.1,0.0,0 days 00:03:30,0 days 00:02:56,47.5703063212538,7.572529383710242
Flums,0,0,1,0.0,0.0,0 days 00:00:30,,47.096616653255786,9.347929247885018
Flamatt,0,0,2,0.0,0.0,0 days 00:02:15,0 days 00:01:18,46.88849135728458,7.319570811530459
Faido,0,0,1,0.0,0.0,,,46.48307550405715,8.790710106817194
Bodio TI,0,0,1,0.0,0.0,0 days 00:00:03,,46.38025452036379,8.906567985277539
Münsingen,0,0,2,0.0,0.0,0 days 00:01:37,0 days 00:01:28,46.87335414993427,7.5594423960230674
Lavorgo,0,0,1,0.0,0.0,0 days 00:00:08,,46.44090172513061,8.83974741803317
Maienfeld,1,0,3,33.3,0.0,0 days 00:03:22,0 days 00:02:42,47.00384055331278,9.529216089685594
Wynigen,1,1,1,100.0,100.0,0 days 00:03:29,0 days 00:03:16,47.10517483137686,7.663506863498608
Burgdorf,0,0,2,0.0,0.0,0 days 00:02:56,0 days 00:02:54,47.06070072639066,7.621694473552611
Ambrì-Piotta,0,0,1,0.0,0.0,0 days 00:00:34,0 days 00:00:16,46.51076379041375,8.689927898844136
Düdingen,0,0,1,0.0,0.0,0 days 00:01:52,0 days 00:00:50,46.85105245533772,7.1897532100125545
